City_ID,City,Lat,Lng,Max Temp,Humidity,Cloudiness,Wind Speed,Country,Date
0,st. john's,47.5649,-52.7093,1.75,82,100,2.06,CA,1701040947
1,grytviken,-54.2811,-36.5092,3.97,95,100,3.9,GS,1701040947
2,happy valley-goose bay,53.3168,-60.3315,-1.83,69,75,6.69,CA,1701040947
3,kapa'a,22.0752,-159.319,26.99,79,75,7.72,US,1701040947
4,al ghayzah,16.2079,52.176,25.65,70,10,1.36,YE,1701040947
5,shimoda,34.6667,138.95,13.2,69,0,2.74,JP,1701040947
6,alo,7.4178,6.7371,24.57,87,100,0.92,NG,1701040948
7,kimovsk,53.9716,38.5319,0.06,98,100,6.54,RU,1701040948
8,bethel,41.3712,-73.414,9.31,81,100,4.63,US,1701040948
9,albany,42.6001,-73.9662,5.13,73,99,0.89,US,1701040788
10,kharan,28.5833,65.4167,15.69,45,79,0.35,PK,1701040948
11,college,64.8569,-147.8028,-3.64,87,75,1.54,US,1701040948
12,crane,31.3974,-102.3501,10.5,25,100,3.5,US,1701040948
13,whitehorse,60.7161,-135.0538,5.05,75,75,6.71,CA,1701040948
14,port-aux-francais,-49.35,70.2167,3.51,75,100,7.04,TF,1701040948
15,camaqua,-30.8511,-51.8122,19.61,86,11,4.25,BR,1701040948
16,hanceville,34.0607,-86.7675,11.97,94,100,1.88,US,1701040949
17,papatowai,-46.5619,169.4708,14.07,70,99,2.14,NZ,1701040949
18,trashi yangtse,27.6116,91.498,10.8,60,60,2.25,BT,1701040949
19,avarua,-21.2078,-159.775,27.03,65,75,8.75,CK,1701040949
20,lata,40.1629,-8.3327,14.34,96,81,0.24,PT,1701040949
21,constantia,44.1833,28.65,-0.62,73,100,9.86,RO,1701040944
22,iskateley,67.6803,53.1512,-19.19,99,83,3.11,RU,1701040949
23,bandarbeyla,9.4942,50.8122,26.22,75,100,8.19,SO,1701040949
24,christchurch,-43.5333,172.6333,20.3,55,92,7.2,NZ,1701040789
25,taroa,8.7058,171.2275,27.93,80,56,9.06,MH,1701040950
26,puerto natales,-51.7236,-72.4875,7.99,64,35,4.09,CL,1701040950
27,edinburgh of the seven seas,-37.0676,-12.3116,12.85,67,10,13.95,SH,1701040950
28,yellowknife,62.456,-114.3525,-13.71,85,100,4.63,CA,1701040950
29,puerto ayora,-0.7393,-90.3518,25.31,90,66,3.13,EC,1701040950
30,adamstown,-25.066,-130.1015,21.28,86,100,12.54,PN,1701040950
31,breyten,-26.3018,29.987,15.26,85,3,1.05,ZA,1701040950
32,novoukrayinka,48.3264,31.5285,-2.97,95,100,14.23,UA,1701040950
33,itamaraca,-7.7478,-34.8256,28.03,66,0,4.26,BR,1701040950
34,sinabang,2.4803,96.3801,25.86,80,100,1.3,ID,1701040951
35,longyearbyen,78.2186,15.6401,0.91,86,75,7.2,SJ,1701040702
36,ulverston,54.1959,-3.0963,6.49,82,100,1.16,GB,1701040951
37,haiku-pauwela,20.9219,-156.3051,27.01,69,40,11.32,US,1701040951
38,uturoa,-16.7333,-151.4333,26.39,78,45,8.12,PF,1701040951
39,whangarei,-35.7317,174.3239,20.92,43,48,2.66,NZ,1701040951
40,nar'yan-mar,67.6713,53.087,-19.23,99,84,3.06,RU,1701040951
41,hamilton,39.1834,-84.5333,7.74,87,100,5.14,US,1701040794
42,isafjordur,66.0755,-23.124,3.69,88,96,4.25,IS,1701040951
43,bilibino,68.0546,166.4372,-12.46,89,14,2.85,RU,1701040952
44,iqaluit,63.7506,-68.5145,-11.15,73,75,1.54,CA,1701040952
45,hawaiian paradise park,19.5933,-154.9731,26.73,77,20,3.6,US,1701040952
46,waitangi,-43.9535,-176.5597,15.46,94,70,3.58,NZ,1701040952
47,tongliao,43.6125,122.2653,-10.51,95,100,1.08,CN,1701040952
48,puerto lempira,15.2667,-83.7667,29.08,84,20,0.0,HN,1701040952
49,port mathurin,-19.6833,63.4167,24.7,74,56,7.61,MU,1701040745
50,mazara del vallo,37.6641,12.588,11.63,57,75,4.99,IT,1701040800
51,taro,-8.3862,115.28,23.0,83,100,0.51,ID,1701040952
52,keflavik,64.0049,-22.5624,5.95,100,100,8.23,IS,1701040953
53,puerto cabezas,14.0351,-83.3888,28.98,84,40,4.12,NI,1701040953
54,ushuaia,-54.8,-68.3,6.81,65,75,8.75,AR,1701040936
55,tongchuanshi,35.0806,109.0897,5.98,35,3,2.34,CN,1701040802
56,hithadhoo,-0.6,73.0833,27.38,75,64,1.2,MV,1701040953
57,tutoia,-2.7619,-42.2744,27.23,78,33,6.09,BR,1701040953
58,blackmans bay,-43.0167,147.3167,11.52,74,96,3.25,AU,1701040953
59,paradip garh,20.3167,86.6167,20.25,71,77,3.53,IN,1701040953
60,itupiranga,-5.1347,-49.3267,27.18,89,87,2.26,BR,1701040954
61,port elizabeth,-33.918,25.5701,20.17,81,0,2.57,ZA,1701040954
62,kirakira,-10.4544,161.9205,28.03,81,100,4.4,SB,1701040954
63,zhuanghe,39.7008,122.9911,1.96,82,35,1.47,CN,1701040954
64,aasiaat,68.7098,-52.8699,-6.76,96,100,3.96,GL,1701040954
65,ust-nera,64.5667,143.2,-24.84,96,99,3.15,RU,1701040954
66,lemvig,56.5486,8.3102,0.67,91,100,6.86,DK,1701040955
67,dryden,49.7833,-92.7503,-10.84,79,100,4.63,CA,1701040955
68,tofol,5.3248,163.0078,30.88,70,75,3.09,FM,1701040956
69,alaghsas,17.0187,8.0168,25.28,18,83,4.99,NE,1701040956
70,fresnillo,23.1667,-102.8833,24.75,16,95,2.87,MX,1701040861
71,churapcha,62.0025,132.4325,-29.76,93,100,2.52,RU,1701040956
72,bredasdorp,-34.5322,20.0403,16.3,80,14,1.14,ZA,1701040956
73,waddan,29.1614,16.139,12.75,52,35,1.27,LY,1701040956
74,shahpura,27.3833,75.9667,17.23,53,100,1.94,IN,1701040956
75,vila franca do campo,37.7167,-25.4333,20.23,99,91,8.25,PT,1701040957
76,suez,29.9737,32.5263,17.3,49,0,4.39,EG,1701040345
77,dolores,-36.3132,-57.6792,20.68,55,0,6.12,AR,1701040957
78,talnakh,69.4865,88.3972,-23.53,97,95,2.42,RU,1701040957
79,tiksi,71.6872,128.8694,-24.44,100,98,2.86,RU,1701040812
80,vernon,50.2581,-119.2691,5.34,74,59,0.45,CA,1701040957
81,ampanihy,-24.7,44.75,20.26,96,20,1.03,MG,1701040957
82,sweet home,44.3976,-122.7362,11.4,67,0,0.45,US,1701040957
83,saipan,15.1355,145.701,29.39,79,0,8.75,MP,1701040957
84,newman,37.3138,-121.0208,15.72,45,99,0.89,US,1701040957
85,filingue,14.3521,3.3168,29.39,19,95,2.42,NE,1701040958
86,bayevo,53.2833,80.7667,0.72,92,100,2.83,RU,1701040958
87,akrehamn,59.2667,5.1833,4.67,79,100,11.96,NO,1701040958
88,margaret river,-33.95,115.0667,20.44,61,100,4.58,AU,1701040958
89,sao jose da coroa grande,-8.8978,-35.1478,24.84,70,0,2.78,BR,1701040959
90,tionk essil,12.7856,-16.5217,22.98,66,0,2.4,SN,1701040959
91,alofi,-19.0595,-169.9187,29.94,70,48,5.66,NU,1701040959
92,saint pete beach,27.7253,-82.7412,24.54,91,100,5.66,US,1701040960
93,tovarkovskiy,53.6822,38.2092,0.44,99,100,7.16,RU,1701040960
94,opuwo,-18.0607,13.84,24.75,56,92,2.48,NA,1701040960
95,udachny,66.4167,112.4,-19.68,99,99,3.3,RU,1701040960
96,naze,28.3667,129.4833,18.51,80,96,2.6,JP,1701040960
97,choyr,46.3611,108.3611,-15.96,77,61,7.13,MN,1701040960
98,alice springs,-23.7,133.8833,24.75,53,27,2.06,AU,1701040725
99,ulety,51.3572,112.4849,-16.19,90,61,3.53,RU,1701040961
100,fale old settlement,-9.3852,-171.2468,29.87,74,40,7.46,TK,1701040961
101,bayanhongor,46.7167,100.1167,-19.22,84,4,2.29,MN,1701040961
102,callao,-12.0667,-77.15,24.29,73,0,6.69,PE,1701040961
103,yeppoon,-23.1333,150.7333,24.88,71,99,4.31,AU,1701040962
104,olonkinbyen,70.9221,-8.7187,1.07,87,82,7.77,SJ,1701040962
105,thompson,55.7435,-97.8558,-16.91,71,75,4.63,CA,1701040962
106,goondiwindi,-28.55,150.3167,25.66,60,65,3.1,AU,1701040962
107,richards bay,-28.783,32.0377,21.71,94,15,0.98,ZA,1701040962
108,grahamstown,-33.3042,26.5328,16.08,89,8,2.37,ZA,1701040962
109,nova sintra,14.8667,-24.7167,22.06,67,25,6.88,CV,1701040962
110,west island,-12.1568,96.8225,25.99,73,40,5.14,CC,1701040962
111,vorkuta,67.5,64.0,-19.15,100,92,1.27,RU,1701040963
112,jansath,29.3333,77.85,17.35,35,100,0.93,IN,1701040963
113,koryazhma,61.3143,47.1691,-10.05,93,100,2.72,RU,1701040963
114,lebu,-37.6167,-73.65,14.31,84,100,4.7,CL,1701040963
115,kodiak,57.79,-152.4072,3.73,93,75,2.06,US,1701040963
116,bridgewater,44.3835,-64.5155,3.79,78,26,1.54,CA,1701040963
117,utrik,11.2278,169.8474,27.85,72,94,9.21,MH,1701040963
118,vadso,70.0744,29.7487,-1.91,80,75,5.66,NO,1701040963
119,atchison,39.563,-95.1216,2.33,87,26,3.35,US,1701040963
120,priob'ye,62.5206,65.5964,-13.32,92,100,2.68,RU,1701040963
121,hermanus,-34.4187,19.2345,17.09,79,9,0.08,ZA,1701040964
122,dampit,-8.2116,112.7493,22.53,82,78,0.68,ID,1701040964
123,acarau,-2.8856,-40.12,26.88,73,28,7.55,BR,1701040964
124,zaozersk,69.4005,32.4476,-13.46,86,71,0.55,RU,1701040964
125,lihue,21.9789,-159.3672,26.58,73,75,7.72,US,1701040684
126,maymana,35.9214,64.7836,15.14,41,100,1.44,AF,1701040964
127,tanabe,33.7333,135.3667,10.56,71,75,0.51,JP,1701040964
128,stanley,54.868,-1.6985,3.2,93,75,0.51,GB,1701040700
129,hami,42.8,93.45,1.97,44,100,3.33,CN,1701040965
130,ribeira grande,38.5167,-28.7,18.21,97,100,6.26,PT,1701040965
131,grand rapids,42.9634,-85.6681,1.47,95,100,4.63,US,1701040965
132,darwin,-12.4611,130.8418,30.99,66,40,2.06,AU,1701040965
133,saldanha,-33.0117,17.9442,15.03,87,6,5.42,ZA,1701040965
134,hotan,37.0997,79.9269,2.64,31,82,0.69,CN,1701040965
135,hough,36.8709,-101.5771,4.68,82,0,0.58,US,1701040965
136,faya-largeau,17.9257,19.1043,23.93,16,29,9.78,TD,1701040966
137,quimili,-27.6333,-62.4167,22.54,91,87,4.55,AR,1701040966
138,pandan,14.0453,124.1694,26.49,88,74,3.8,PH,1701040966
139,georgetown,5.4112,100.3354,25.96,92,20,1.54,MY,1701040794
140,yaren,-0.5472,166.916,28.74,71,90,1.75,NR,1701040966
141,maracacume,-2.0428,-45.9592,24.4,88,95,1.8,BR,1701040966
142,arkhangel'sk,64.5401,40.5433,-15.49,99,75,1.65,RU,1701040780
143,francisco beltrao,-26.0811,-53.055,18.44,96,100,1.56,BR,1701040966
144,lompoc,34.6391,-120.4579,20.99,30,0,3.6,US,1701040966
145,la'ie,21.6477,-157.9253,28.98,73,100,3.58,US,1701040967
146,ancud,-41.8697,-73.8203,13.57,81,100,0.92,CL,1701040967
147,qaqortoq,60.7167,-46.0333,-5.65,93,100,1.77,GL,1701040967
148,kendari,-3.945,122.4989,26.06,86,84,0.78,ID,1701040967
149,badger,64.8,-147.5333,-3.69,88,100,1.54,US,1701040967
150,harar,9.3094,42.1258,12.87,39,23,2.47,ET,1701040967
151,kingston,17.997,-76.7936,28.53,76,20,9.26,JM,1701040967
152,ta`u,-14.2336,-169.5144,27.85,84,67,8.23,AS,1701040968
153,galveston,29.3669,-94.9669,14.47,58,92,3.13,US,1701040968
154,whakatane,-37.9585,176.9854,24.93,50,0,3.27,NZ,1701040968
155,grande prairie,55.1667,-118.8027,2.1,69,40,1.03,CA,1701040968
156,milton,34.1322,-84.3007,8.0,85,100,1.71,US,1701040968
157,sosnovka,56.255,51.2842,0.51,87,97,3.9,RU,1701040968
158,margate,51.3813,1.3862,9.61,94,100,4.47,GB,1701040968
159,port alfred,-33.5906,26.891,19.54,97,16,1.57,ZA,1701040968
160,sitka,57.0531,-135.33,8.94,81,100,6.17,US,1701040969
161,ilulissat,69.2167,-51.1,-0.99,93,100,2.06,GL,1701040675
162,pacific grove,36.6177,-121.9166,18.47,38,0,2.57,US,1701040969
163,island harbour,50.724,-1.2758,11.2,93,100,1.34,GB,1701040969
164,san patricio,28.017,-97.5169,16.05,50,100,6.95,US,1701040969
165,rasskazovo,52.6714,41.9033,3.64,92,100,7.29,RU,1701040969
166,sur,22.5667,59.5289,23.74,59,8,1.37,OM,1701040969
167,katsuren-haebaru,26.3369,127.8719,23.01,90,75,1.54,JP,1701040969
168,xinyuan,37.3,99.0,-9.1,33,57,3.19,CN,1701040970
169,east london,-33.0153,27.9116,21.13,95,37,3.71,ZA,1701040970
170,taoudenni,22.6783,-3.9836,18.44,19,38,4.01,ML,1701040970
171,ust'-ilimsk,58.0006,102.6619,-20.95,95,77,1.26,RU,1701040970
172,arawa,-6.2132,155.5367,30.22,70,93,1.73,PG,1701040970
173,castillos,-34.1667,-53.8333,17.12,87,3,4.54,UY,1701040971
174,isangel,-19.55,169.2667,28.06,61,75,2.57,VU,1701040971
175,merizo village,13.2658,144.6691,29.99,85,68,8.45,GU,1701040971
176,san clemente del tuyu,-36.3569,-56.7235,18.88,83,0,7.88,AR,1701040971
177,punta arenas,-53.15,-70.9167,10.06,53,20,9.26,CL,1701040971
178,atafu village,-8.5421,-172.5159,29.67,75,60,5.9,TK,1701040971
179,meizhou,24.2977,116.1072,14.44,88,0,0.93,CN,1701040971
180,shizuishan,39.2333,106.7694,0.73,49,1,3.95,CN,1701040971
181,namibe,-15.1961,12.1522,23.95,70,69,2.34,AO,1701040972
182,viveiro,43.6623,-7.5934,12.91,83,100,3.16,ES,1701040972
183,ocean shores,46.9737,-124.1563,12.23,80,0,6.17,US,1701040972
184,tra vinh,9.9347,106.3453,23.46,95,100,1.66,VN,1701040972
185,bircotes,53.4193,-1.0491,5.8,92,100,1.2,GB,1701040972
186,hadibu,12.65,54.0333,25.69,74,97,5.16,YE,1701040972
187,nazyvayevsk,55.5698,71.3529,-1.94,97,100,2.76,RU,1701040972
188,tyre,33.2733,35.1939,17.34,64,93,13.53,LB,1701040808
189,macenta,8.5435,-9.471,20.52,97,14,0.16,GN,1701040972
190,kuraymah,18.55,31.85,27.38,20,88,6.13,SD,1701040973
191,dudinka,69.4058,86.1778,-27.26,100,92,2.25,RU,1701040973
192,brokopondo,4.75,-55.1667,26.4,80,98,4.21,SR,1701040974
193,nizhneangarsk,55.7833,109.55,-15.55,78,98,3.58,RU,1701040974
194,tchintabaraden,15.8969,5.7985,26.44,21,91,3.67,NE,1701040974
195,bayanaul,50.7889,75.6956,0.69,40,100,2.75,KZ,1701040974
196,coron,11.9986,120.2043,26.41,84,98,0.47,PH,1701040974
197,hammerfest,70.6634,23.6821,-2.75,68,40,1.54,NO,1701040974
198,labuan,5.2767,115.2417,26.2,89,20,1.54,MY,1701040974
199,daru,-9.0763,143.2092,28.96,70,99,3.79,PG,1701040975
200,netanya,32.3329,34.8599,22.01,71,31,12.1,IL,1701040975
201,anadyr,64.75,177.4833,2.28,93,75,13.0,RU,1701040975
202,kampala,0.3163,32.5822,17.57,98,100,0.68,UG,1701040841
203,korla,41.7597,86.1469,2.41,52,13,1.44,CN,1701040975
204,kuta,-8.7233,115.1723,26.97,78,40,1.54,ID,1701040975
205,wailua homesteads,22.0669,-159.378,26.24,79,75,7.72,US,1701040975
206,gaoual,11.75,-13.2,25.32,61,1,1.34,GN,1701040975
207,arona,28.0996,-16.681,17.68,79,75,3.09,ES,1701040975
208,vila velha,-20.3297,-40.2925,21.97,96,100,2.57,BR,1701040780
209,madera,37.1666,-119.8343,16.1,42,99,2.0,US,1701040976
210,champasak,14.75,106.0,20.49,83,90,0.53,LA,1701040976
211,labrador city,52.9463,-66.9114,-4.05,80,100,2.57,CA,1701040976
212,jamestown,42.097,-79.2353,4.75,75,100,5.66,US,1701040856
213,griffith,41.5284,-87.4237,1.05,88,100,4.63,US,1701040976
214,ado-odo,6.6,2.9333,25.12,90,100,0.97,NG,1701040976
215,luderitz,-26.6481,15.1594,20.57,52,0,8.84,NA,1701040977
216,potsdam,52.3989,13.0657,1.04,87,91,0.73,DE,1701040500
217,kununurra,-15.7667,128.7333,27.99,74,23,1.54,AU,1701040977
218,antsiranana,-12.2787,49.2917,25.14,79,90,5.66,MG,1701040719
219,tamandare,-8.7597,-35.1047,24.65,70,0,2.75,BR,1701040977
220,grand falls-windsor,48.9332,-55.6649,1.39,74,91,2.49,CA,1701040910
221,tsengel,49.4783,100.8894,-14.43,88,3,2.29,MN,1701040977
222,seaside,36.6111,-121.8516,18.29,37,0,2.57,US,1701040978
223,santa cruz,-17.8,-63.1667,28.03,65,40,4.63,BO,1701040801
224,canton,23.1167,113.25,17.97,61,2,2.23,CN,1701040770
225,la ronge,55.1001,-105.2842,-12.86,72,100,2.06,CA,1701040978
226,ercis,39.0287,43.3586,7.4,70,70,4.45,TR,1701040978
227,illapel,-31.6308,-71.1653,22.33,54,0,1.61,CL,1701040978
228,acapulco de juarez,16.8634,-99.8901,29.9,74,75,3.6,MX,1701040978
229,tindouf,27.6711,-8.1474,16.25,25,0,2.06,DZ,1701040979
230,conceicao da barra,-18.5933,-39.7322,23.77,72,4,3.44,BR,1701040979
231,pemba,-12.974,40.5178,27.39,94,20,1.54,MZ,1701040979
232,el bauga,18.262,33.9081,26.03,42,98,3.32,SD,1701040979
233,nykoping,58.753,17.0079,-4.84,89,75,3.09,SE,1701040979
234,chardara,41.2547,67.9692,13.95,38,100,3.34,KZ,1701040979
235,jianshui,23.6363,102.8264,11.1,93,11,1.09,CN,1701040979
236,revda,56.801,59.9303,-0.53,89,100,2.47,RU,1701040980
237,tobruk,32.0836,23.9764,16.79,49,68,7.97,LY,1701040980
238,yuzhno-kurilsk,44.0306,145.8556,-0.35,78,27,0.68,RU,1701040980
239,progreso,21.2833,-89.6667,30.06,78,17,4.86,MX,1701040980
240,tazovsky,67.4667,78.7,-19.24,97,89,4.75,RU,1701040980
241,shagonar,51.5333,92.8,-13.23,98,98,1.32,RU,1701040980
242,tutong,4.8,114.65,25.05,94,100,2.97,BN,1701040980
243,santanyi,39.3546,3.1291,13.79,74,63,5.54,ES,1701040980
244,kavaratti,10.5669,72.642,28.48,71,19,2.54,IN,1701040981
245,alesund,62.4723,6.1549,2.09,79,0,7.72,NO,1701040749
246,puerto colombia,10.9878,-74.9547,29.05,78,51,6.11,CO,1701040981
247,palmer,42.1584,-72.3287,6.07,72,75,0.0,US,1701040981
248,vilyuysk,63.7553,121.6247,-18.18,91,100,4.63,RU,1701040981
249,qulsary,46.9531,54.0198,6.02,75,0,7.34,KZ,1701040981
250,katsina-ala,7.1667,9.2833,24.67,88,97,2.56,NG,1701040982
251,coquimbo,-29.9533,-71.3436,14.85,88,40,4.12,CL,1701040663
252,green cove springs,29.9919,-81.6781,19.46,97,100,1.34,US,1701040982
253,chifeng,42.2683,118.9636,-7.29,75,43,1.41,CN,1701040794
254,carnarvon,-24.8667,113.6333,22.08,66,70,4.95,AU,1701040982
255,vianopolis,-16.7419,-48.5164,19.91,91,89,3.28,BR,1701040982
256,westport,41.1415,-73.3579,10.6,84,100,6.69,US,1701040982
257,kapuskasing,49.4169,-82.4331,-0.95,100,100,3.09,CA,1701040982
258,quesada,10.3238,-84.4271,25.89,98,100,1.12,CR,1701040982
259,mumford,5.2618,-0.759,24.48,91,100,2.53,GH,1701040983
260,lethem,3.3803,-59.7968,28.64,58,65,2.2,GY,1701040983
261,smithers,54.7804,-127.1743,-0.82,86,100,1.54,CA,1701040983
262,ghadamis,30.1337,9.5007,14.62,41,85,4.06,LY,1701040983
263,tuban,-6.8976,112.0649,26.3,74,94,3.2,ID,1701040983
264,kudachi,16.6333,74.85,22.07,77,35,2.24,IN,1701040983
265,bayji,34.9311,43.487,16.19,58,3,6.16,IQ,1701040983
266,invercargill,-46.4,168.35,13.9,75,100,1.79,NZ,1701040983
267,toliara,-23.35,43.6667,23.39,90,7,2.3,MG,1701040983
268,tolanaro,-25.0319,46.9987,25.04,83,20,6.17,MG,1701040984
269,auki,-8.7676,160.7034,28.99,71,84,1.84,SB,1701040984
270,la malbaie,47.6575,-70.1559,0.37,91,92,1.37,CA,1701040984
271,wynyard,-41.0,145.7167,10.34,91,100,3.44,AU,1701040984
272,ak'ordat,15.5486,37.8867,25.86,49,14,1.87,ER,1701040984
273,ust'-barguzin,53.45,108.9833,-12.02,84,98,1.71,RU,1701040984
274,emiliano zapata,18.8333,-99.1833,28.34,39,20,1.54,MX,1701040984
275,birchington-on-sea,51.3758,1.3048,10.52,95,100,4.47,GB,1701040984
276,selfoss,63.9331,-20.9971,4.62,86,100,2.5,IS,1701040984
277,posto fiscal rolim de moura,-13.0833,-62.2667,27.32,61,73,1.06,BR,1701040985
278,mushie,-3.0167,16.9,21.85,98,100,0.81,CD,1701040985
279,chu,43.5983,73.7614,6.49,53,80,1.85,KZ,1701040985
280,moose jaw,50.4001,-105.5344,-4.85,68,100,4.63,CA,1701040838
281,kourou,5.1552,-52.6478,27.03,90,90,2.95,GF,1701040985
282,novokuybyshevsk,53.0959,49.9462,2.1,85,27,4.57,RU,1701040734
283,makushino,55.2103,67.2442,0.27,98,100,4.33,RU,1701040985
284,sola,-13.8833,167.55,26.41,84,96,7.9,VU,1701040985
285,tamanrasset,22.785,5.5228,10.95,15,0,2.06,DZ,1701040985
286,vorgashor,67.5833,63.95,-19.24,100,92,1.5,RU,1701040986
287,padang,-0.9492,100.3543,24.03,90,100,1.43,ID,1701040903
288,hoa binh,20.8133,105.3383,20.96,85,84,0.34,VN,1701040986
289,saynshand,44.8824,110.1163,-9.58,79,100,4.93,MN,1701040986
290,amungan,15.3652,119.9582,26.48,73,94,1.39,PH,1701040986
291,klyuchi,52.2667,79.1667,0.35,51,74,2.64,RU,1701040986
292,rabo de peixe,37.8,-25.5833,19.73,99,75,8.75,PT,1701040986
293,brookings,44.3114,-96.7984,-5.9,68,0,6.17,US,1701040986
294,kruisfontein,-34.0033,24.7314,17.88,80,27,2.86,ZA,1701040987
295,tura,25.5198,90.2201,16.71,59,52,1.46,IN,1701040987
296,touros,-5.1989,-35.4608,25.59,74,1,4.59,BR,1701040987
297,oropesa del mar,40.1,0.15,12.17,79,87,0.96,ES,1701040987
298,port lincoln,-34.7333,135.8667,15.51,77,100,9.03,AU,1701040987
299,kadugli,11.0167,29.7167,26.88,24,20,2.89,SD,1701040987
300,san isidro,-12.1167,-77.05,23.9,69,0,6.69,PE,1701040987
301,camiri,-20.05,-63.5167,22.23,80,89,0.95,BO,1701040987
302,estevan,49.1334,-102.9842,-9.81,79,0,3.6,CA,1701040988
303,bosansko grahovo,44.1794,16.3639,-1.91,57,2,1.34,BA,1701040988
304,samalut,28.3121,30.7101,16.4,50,0,3.01,EG,1701040988
305,nyanza,-2.3519,29.7509,14.76,93,83,0.81,RW,1701040988
306,amasra,41.7463,32.3863,6.62,77,100,8.64,TR,1701040988
307,dwarka,22.2394,68.9678,22.99,74,1,5.73,IN,1701040988
308,cambria,35.5641,-121.0808,20.28,64,100,0.45,US,1701040988
309,wattegama,6.7989,81.4808,22.88,96,98,1.63,LK,1701040988
310,enewetak,11.3474,162.3373,28.03,79,73,9.68,MH,1701040989
311,malango,-2.9627,119.9001,21.39,93,99,0.46,ID,1701040989
312,arvayheer,46.2639,102.775,-10.94,61,89,5.81,MN,1701040989
313,kodinsk,58.6881,99.1844,-23.43,99,9,0.51,RU,1701040857
314,daly city,37.7058,-122.4619,16.51,38,75,4.47,US,1701040989
315,bardai,11.65,7.2333,23.14,69,73,2.41,NG,1701040989
316,quellon,-43.1167,-73.6167,11.11,70,100,3.07,CL,1701040989
317,oyama,36.3,139.8,9.77,56,0,0.47,JP,1701040989
318,afaahiti,-17.75,-149.2833,28.93,84,77,8.8,PF,1701040990
319,tyuratam,45.6507,63.3156,9.66,44,100,6.79,KZ,1701040990
320,new norfolk,-42.7826,147.0587,12.18,49,27,1.35,AU,1701040990
321,amarante do maranhao,-5.5667,-46.7422,25.86,65,2,2.28,BR,1701040990
322,fortuna,40.5982,-124.1573,16.63,48,0,0.45,US,1701040990
323,ola,59.5833,151.2833,-17.14,81,100,5.41,RU,1701040990
324,bowling green,36.9903,-86.4436,8.41,89,100,5.66,US,1701040990
325,fauske,67.2588,15.3918,-4.01,79,11,3.18,NO,1701040990
326,dera bugti,29.0307,69.151,16.0,33,18,2.6,PK,1701040991
327,moradabad,28.8333,78.7833,17.81,41,100,1.13,IN,1701040921
328,hanko,59.8333,22.95,-2.96,77,99,6.55,FI,1701040991
329,west bay,19.3667,-81.4167,29.04,81,20,3.09,KY,1701040991
330,zhangjiajie,29.1294,110.4783,10.79,95,0,1.37,CN,1701040916
331,ende,-8.8432,121.6623,27.58,75,81,0.6,ID,1701040991
332,usinsk,65.9939,57.5281,-23.68,100,68,1.93,RU,1701040810
333,chibougamau,49.9168,-74.3659,-3.21,93,100,4.12,CA,1701040991
334,anbyon-up,39.0425,127.5239,2.45,98,100,1.09,KP,1701040991
335,kailua-kona,19.6406,-155.9956,27.98,78,20,6.17,US,1701040992
336,ghormach,35.7306,63.7826,15.48,37,100,1.25,AF,1701040992
337,surgut,61.25,73.4167,-5.9,93,75,2.0,RU,1701040612
338,pitimbu,-7.4706,-34.8086,27.33,68,0,4.92,BR,1701040992
339,kupang,-10.1667,123.5833,30.32,79,20,1.03,ID,1701040992
340,evanston,42.0411,-87.6901,1.1,81,100,4.63,US,1701040992
341,huarmey,-10.0681,-78.1522,21.15,79,75,4.42,PE,1701040990
342,pankrushikha,53.8319,80.3406,0.11,96,98,2.36,RU,1701040992
343,funafuti,-8.5243,179.1942,33.0,75,40,4.12,TV,1701040993
344,nicoya,10.1483,-85.452,25.55,90,92,1.3,CR,1701040993
345,kasongo-lunda,-6.4667,16.8167,20.83,98,93,0.48,CD,1701040993
346,pajan,-1.5667,-80.4167,27.21,70,97,2.2,EC,1701040993
347,geraldton,-28.7667,114.6,22.23,64,100,5.14,AU,1701040993
348,tromso,69.6496,18.957,-2.99,93,100,0.0,NO,1701040994
349,fort stockton,30.894,-102.8793,9.03,47,0,1.54,US,1701040994
350,saudarkrokur,65.7461,-19.6394,2.41,86,57,4.72,IS,1701040994
351,saint-philippe,-21.3585,55.7679,21.77,77,29,2.49,RE,1701040995
352,kangding,30.0513,101.9603,2.72,37,0,4.11,CN,1701040995
353,neelankarai,12.9455,80.2575,26.69,94,75,1.03,IN,1701040995
354,thunder bay,48.4001,-89.3168,-2.01,86,100,3.6,CA,1701040995
355,alakurtti,66.9672,30.3491,-20.63,99,51,1.88,RU,1701040995
356,dieppe,49.75,1.1667,5.57,86,100,2.68,FR,1701040995
357,envira,-7.3,-70.2167,22.28,99,99,1.01,BR,1701040995
358,eregli,37.5133,34.0467,1.37,95,59,4.45,TR,1701040995
359,hilo,19.7297,-155.09,26.85,73,20,3.6,US,1701040996
360,kedrovyy,56.1667,91.8167,-13.77,96,100,1.52,RU,1701040996
361,sao vicente,-23.9631,-46.3919,23.86,51,100,2.68,BR,1701040996
362,port moresby,-9.4431,147.1797,29.68,74,75,2.57,PG,1701040996
363,nuuk,64.1835,-51.7216,-0.66,100,100,9.26,GL,1701040747
364,mammoth lakes,37.6485,-118.9721,4.63,21,0,4.12,US,1701040996
365,voi,-3.3945,38.563,22.38,89,100,1.72,KE,1701040996
366,saint-pierre,-21.3393,55.4781,21.98,68,0,3.6,RE,1701040925
367,itacare,-14.2775,-38.9967,23.08,93,81,3.17,BR,1701040996
368,goz beida,13.95,20.55,26.44,20,36,4.38,TD,1701040997
369,copiapo,-27.3667,-70.3333,14.83,39,0,2.77,CL,1701040997
370,international falls,48.6011,-93.411,-7.7,74,100,6.69,US,1701040997
371,plastun,44.7561,136.2939,-7.93,53,96,2.76,RU,1701040997
372,cullowhee,35.3137,-83.1765,9.36,90,100,0.0,US,1701040997
373,hiratacho,35.4333,132.8167,11.01,76,75,3.09,JP,1701040997
374,taulaga,-11.0553,-171.0883,29.13,78,99,8.3,AS,1701040997
375,bereeda,11.8704,51.0579,25.42,76,25,1.88,SO,1701040997
376,caldas novas,-17.7417,-48.625,21.82,91,67,1.79,BR,1701040923
377,kalmunai,7.4167,81.8167,25.01,89,99,1.19,LK,1701040997
378,mauganj,24.6833,81.8833,17.27,48,100,2.0,IN,1701040998
379,santo antonio do leverger,-15.8656,-56.0767,29.21,84,90,0.8,BR,1701040998
380,gamba,-2.65,10.0,25.85,88,100,2.02,GA,1701040998
381,bamboo flat,11.7,92.7167,28.05,83,40,2.57,IN,1701040998
382,vilyuchinsk,52.9306,158.4028,-7.82,78,26,3.36,RU,1701040999
383,bunbury,-33.3333,115.6333,21.91,51,100,5.17,AU,1701040999
384,san jose del cabo,23.0589,-109.6977,27.0,61,100,2.06,MX,1701041000
385,al jubayl,27.0112,49.6583,23.23,75,8,5.44,SA,1701040717
386,woods creek,47.8787,-121.8985,10.86,77,25,0.28,US,1701041000
387,wanparti,16.3667,78.0667,20.68,93,13,1.61,IN,1701041000
388,nagqu,31.5,92.0,-11.09,52,87,1.25,CN,1701041000
389,naousa,40.6329,22.0534,1.94,50,3,2.33,GR,1701041000
390,praia da vitoria,38.7333,-27.0667,19.14,100,40,8.11,PT,1701041000
391,arkalyk,50.2486,66.9114,1.53,45,100,8.11,KZ,1701041000
392,pangody,65.85,74.4859,-12.71,96,95,3.28,RU,1701041000
393,swift current,50.2834,-107.8014,-3.55,86,100,5.14,CA,1701041001
394,nemuro,43.3236,145.575,2.09,56,49,3.77,JP,1701041001
395,winterville,35.529,-77.4011,9.01,98,100,2.06,US,1701041001
396,ingeniero guillermo n. juarez,-23.9,-61.85,26.12,75,71,3.98,AR,1701041001
397,san angelo,31.4638,-100.437,11.73,33,98,0.89,US,1701041001
398,vrangel',42.7297,133.0839,-2.09,79,100,3.01,RU,1701041001
399,nelson bay,-32.7167,152.15,25.03,79,0,7.52,AU,1701041001
400,salbris,47.4242,2.0512,3.31,77,100,2.32,FR,1701041002
401,hirara,24.8,125.2833,23.92,73,75,5.66,JP,1701041002
402,pitea,65.3172,21.4794,-10.95,96,93,3.52,SE,1701041002
403,kavieng,-2.5744,150.7967,29.37,71,97,2.44,PG,1701041002
404,murun-kuren,49.6342,100.1625,-14.12,88,5,2.03,MN,1701041002
405,kitaibaraki,36.7833,140.75,8.47,100,0,1.75,JP,1701041002
406,les cayes,18.2,-73.75,25.54,81,43,1.93,HT,1701041002
407,fort bragg,35.139,-79.006,8.91,89,75,0.0,US,1701041003
408,aykhal,66.0,111.5,-20.97,99,99,3.94,RU,1701041003
409,tsiombe,-25.3,45.4833,22.24,91,2,1.83,MG,1701041003
410,reggane,26.7158,0.1714,17.16,26,48,4.44,DZ,1701041003
411,ad diwaniyah,31.9905,44.9306,18.01,66,0,5.24,IQ,1701041003
412,jalai nur,49.45,117.7,-24.32,94,56,2.79,CN,1701041003
413,port blair,11.6667,92.75,28.02,83,40,2.57,IN,1701041003
414,great bend,38.3645,-98.7648,3.07,65,0,4.12,US,1701041003
415,santo antonio,-6.3106,-35.4789,24.34,69,1,3.89,BR,1701041004
416,mhango,-3.2833,32.85,19.71,88,90,1.29,TZ,1701041004
417,bishkek,42.87,74.59,1.11,32,81,0.89,KG,1701041004
418,fisterra,42.9049,-9.2629,13.75,83,100,4.34,ES,1701041004
419,krasnogorskiy,54.6025,61.231,-1.82,88,100,2.8,RU,1701041004
420,ulanhot,46.0833,122.0833,-12.06,83,100,1.01,CN,1701041004
421,colonia,50.9333,6.95,5.54,82,40,2.57,DE,1701040780
422,gilgit,35.9221,74.3087,10.93,47,100,1.78,PK,1701041004
423,upata,8.0086,-62.3989,24.0,94,80,2.05,VE,1701041004
424,petropavlovsk-kamchatsky,53.0452,158.6483,-8.64,74,40,4.47,RU,1701040936
425,pisco,-13.7,-76.2167,21.03,73,0,8.23,PE,1701041005
426,la sarre,48.8002,-79.1996,-1.46,96,100,5.47,CA,1701041005
427,masvingo,-20.0637,30.8277,22.19,43,1,2.94,ZW,1701041005
428,gadzhiyevo,69.2551,33.3362,-14.95,90,48,2.66,RU,1701041005
429,tanumah,27.1,44.1333,22.01,36,83,1.34,SA,1701041005
430,kannur,11.8675,75.3576,24.72,82,10,1.85,IN,1701041005
431,cabo san lucas,22.8909,-109.9124,27.01,65,100,1.54,MX,1701041005
432,constitucion,-35.3333,-72.4167,15.63,81,37,2.09,CL,1701041005
433,mount isa,-20.7333,139.5,27.87,57,91,5.14,AU,1701041006
434,las khorey,11.1595,48.1967,25.74,57,51,2.33,SO,1701041006
435,ryotsu-minato,38.0833,138.4333,11.38,81,100,0.71,JP,1701041006
436,cill airne,52.05,-9.5167,9.6,94,100,2.23,IE,1701041006
437,minas de marcona,-15.2119,-75.1103,16.9,71,28,5.69,PE,1701041006
438,zhezqazghan,47.7833,67.7667,2.06,51,100,5.65,KZ,1701041006
439,cidreira,-30.1811,-50.2056,20.63,81,5,9.79,BR,1701041006
440,marabba,12.35,32.1833,29.87,20,25,3.34,SD,1701041007
441,carutapera,-1.195,-46.02,26.45,78,88,3.13,BR,1701041007
442,dubbo,-32.25,148.6167,26.07,47,0,3.09,AU,1701041007
443,hounde,11.5,-3.5167,28.44,35,26,1.44,BF,1701041007
444,keetmanshoop,-26.5833,18.1333,28.92,13,1,3.49,NA,1701040807
445,aioun,16.6614,-9.6149,23.77,14,1,4.49,MR,1701041007
446,nizhnesortymskiy,62.4397,71.7603,-17.19,98,90,1.3,RU,1701040855
447,cruzeiro do sul,-29.5128,-51.9853,20.67,87,5,1.13,BR,1701041007
448,bubaque,11.2833,-15.8333,27.24,63,3,4.2,GW,1701041007
449,talakan,50.3167,130.3667,-22.2,100,22,0.7,RU,1701041007
450,ketchikan,55.3422,-131.6461,7.26,93,100,5.66,US,1701041008
451,khajuraho group of monuments,24.85,79.9333,17.88,37,100,1.13,IN,1701041008
452,tougan,13.0667,-3.0667,26.65,19,31,3.81,BF,1701041008
453,quezon,7.7303,125.0989,24.78,88,36,1.17,PH,1701041008
454,sanchursk,56.9413,47.2499,0.66,99,100,4.46,RU,1701041008
455,barra do bugres,-15.0725,-57.1811,27.01,66,62,0.83,BR,1701041009
456,kenai,60.5544,-151.2583,2.3,98,100,3.09,US,1701041009
457,mgandu,-5.95,34.1333,18.48,82,93,2.85,TZ,1701041009
458,olean,42.0776,-78.4297,4.38,75,100,5.66,US,1701041009
459,calama,-22.4667,-68.9333,21.27,17,0,11.83,CL,1701041009
460,coronel dorrego,-38.7187,-61.2873,16.18,73,73,5.73,AR,1701041009
461,mount pearl,47.5166,-52.7813,1.29,82,100,2.06,CA,1701041009
462,mianwali,32.5741,71.5264,18.13,32,99,1.13,PK,1701041009
463,terenos,-20.4422,-54.8603,22.84,88,75,2.57,BR,1701041010
464,zbarazh,49.6636,25.7762,-3.23,88,100,9.59,UA,1701041010
465,rio grande,-32.035,-52.0986,22.06,83,61,8.15,BR,1701040921
466,olinda,-8.0089,-34.8553,27.85,65,75,5.14,BR,1701040693
467,guerrero negro,27.9769,-114.0611,21.11,51,22,5.07,MX,1701041011
468,lerwick,60.1545,-1.1494,7.0,65,97,12.18,GB,1701041011
469,borogontsy,62.6683,131.1683,-29.44,93,100,1.59,RU,1701041011
470,machico,32.7,-16.7667,19.35,79,20,2.06,PT,1701041011
471,mongo,12.1844,18.693,27.34,24,9,2.42,TD,1701041012
472,howard springs,-12.497,131.047,30.95,92,39,1.23,AU,1701041012
473,beardstown,40.0176,-90.4243,0.04,82,99,1.34,US,1701041012
474,altenberg,50.7656,13.7533,-1.44,99,100,3.13,DE,1701041012
475,bel ombre,-4.6167,55.4167,26.91,83,40,1.03,SC,1701041012
476,garissa,-0.4536,39.6401,25.98,83,98,3.72,KE,1701041012
477,tottori,35.5,134.2333,10.04,76,20,4.12,JP,1701041012
478,saguenay,48.4168,-71.0657,-0.54,85,100,4.12,CA,1701041012
479,tizimin,21.15,-88.15,25.7,85,78,2.82,MX,1701041012
480,sinan,34.8262,126.1086,9.06,76,87,7.41,KR,1701040789
481,barcelos,41.5388,-8.6151,12.18,92,96,1.1,PT,1701041013
482,muromtsevo,56.3724,75.2418,-0.19,89,100,1.75,RU,1701041013
483,medyn',54.9692,35.8586,-2.92,91,100,2.68,RU,1701041013
484,tralee,52.2704,-9.7026,10.27,89,99,3.87,IE,1701041013
485,frederico westphalen,-27.3592,-53.3944,19.67,94,99,1.53,BR,1701041013
486,bartica,6.4,-58.6167,26.18,88,100,1.49,GY,1701041013
487,maine soroa,13.2114,12.0241,27.33,20,32,4.02,NE,1701041013
488,itoman,26.1247,127.6694,23.01,86,75,3.09,JP,1701041013
489,amuntai,-2.4177,115.2494,23.85,97,97,0.35,ID,1701041014
490,noumea,-22.2763,166.4572,30.99,99,46,4.17,NC,1701041014
491,arroio dos ratos,-30.0772,-51.7292,19.79,88,1,3.08,BR,1701041014
492,klaksvik,62.2266,-6.589,3.51,71,94,8.52,FO,1701041014
493,mkushi,-13.6202,29.3939,18.89,87,100,0.48,ZM,1701041014
494,papao,-17.75,-149.55,29.82,83,54,9.98,PF,1701041014
495,ginir,7.1333,40.7,13.17,50,87,2.37,ET,1701041014
496,sterling,39.0062,-77.4286,7.16,86,100,0.45,US,1701041015
497,kotabumi,-4.8333,104.9,24.18,88,93,1.11,ID,1701041015
498,taganrog,47.2362,38.8969,7.81,68,100,15.27,RU,1701040422
499,malpe,13.35,74.7167,26.61,79,5,1.47,IN,1701041015
500,puerto baquerizo moreno,-0.9,-89.6,24.49,79,60,4.95,EC,1701041015
501,casper,42.8666,-106.3131,-2.93,67,0,5.14,US,1701041015
502,surgana,20.5667,73.6167,18.83,96,88,1.38,IN,1701041015
503,dali,25.7,100.1833,7.44,82,0,0.77,CN,1701041015
504,vanino,49.0869,140.2543,-13.93,55,41,4.01,RU,1701040920
505,bolivar,37.6145,-93.4105,2.72,73,12,5.85,US,1701041016
506,alta,69.9689,23.2717,-9.41,82,100,4.12,NO,1701041016
507,santiago de tolu,9.5239,-75.5814,27.19,88,74,4.51,CO,1701041016
508,neon karlovasion,37.7903,26.7044,12.17,50,74,12.31,GR,1701041016
509,jisr ash shughur,35.8143,36.3206,15.1,80,80,10.86,SY,1701041016
510,sisimiut,66.9395,-53.6735,-3.77,94,100,3.45,GL,1701041016
511,pingxiang,27.6167,113.85,9.0,88,0,0.21,CN,1701041016
512,cabedelo,-6.9811,-34.8339,27.37,71,0,5.81,BR,1701041016
513,lubango,-14.9172,13.4925,15.92,100,96,2.06,AO,1701041017
514,petite riviere,-20.1894,57.4453,23.86,80,22,2.17,MU,1701041017
515,camarinas,43.1311,-9.1817,13.85,87,100,4.91,ES,1701041017
516,fortaleza,-3.7227,-38.5247,28.37,77,40,4.63,BR,1701040727
517,aksu,41.1231,80.2644,1.79,41,32,1.15,CN,1701040822
518,codrington,-38.2667,141.9667,14.12,67,100,5.92,AU,1701041017
519,kipushi,-11.7667,27.2333,17.04,95,100,1.4,CD,1701041017
520,ugoofaaru,5.6667,73.0,28.37,77,100,5.16,MV,1701041017
521,alva,56.1528,-3.8051,6.08,96,100,1.88,GB,1701041017
522,maragogi,-9.0122,-35.2225,24.76,70,0,2.49,BR,1701041018
523,kavalerovo,44.2661,135.0572,-9.14,76,100,0.45,RU,1701041019
524,santo antonio do ica,-3.1022,-67.9397,26.32,77,61,1.04,BR,1701041019
525,cockburn town,21.4612,-71.1419,26.98,65,20,4.12,TC,1701041019
526,batticaloa,7.7102,81.6924,25.68,85,99,1.14,LK,1701041019
527,pasighat,28.0667,95.3333,15.33,45,36,1.59,IN,1701041019
528,iola,37.9245,-95.4,3.03,80,0,3.09,US,1701041019
529,huayin,34.5675,110.0921,9.25,37,0,2.78,CN,1701041019
530,lautoka,-17.6167,177.4667,29.92,70,40,6.69,FJ,1701041019
531,kasumkent,41.6773,48.146,13.43,44,5,6.57,RU,1701041020
532,willow oak,27.9161,-82.0179,24.04,92,75,3.09,US,1701041020
533,puerto quijarro,-17.7833,-57.7667,27.35,70,99,1.25,BO,1701041020
534,chernyshevskiy,63.0128,112.4714,-21.59,98,94,1.78,RU,1701041020
535,al jawf,29.5,38.75,16.6,34,0,4.23,SA,1701041020
536,dessalines,19.2833,-72.5,24.48,83,78,0.98,HT,1701041020
537,aracruz,-19.8203,-40.2733,21.56,93,93,1.8,BR,1701041020
538,kotido,2.9806,34.1331,21.3,69,87,2.46,UG,1701041020
539,timbuktu,16.7735,-3.0074,23.49,13,92,4.52,ML,1701041021
540,holualoa,19.6228,-155.9522,25.91,78,20,6.17,US,1701041021
541,norilsk,69.3535,88.2027,-23.0,96,95,2.2,RU,1701040763
542,nagornyy,52.7959,83.5498,-0.59,62,97,1.78,RU,1701041021
543,ronne,55.1009,14.7066,-0.05,74,100,2.57,DK,1701041021
544,riviere-du-loup,47.8304,-69.5342,1.49,80,91,1.54,CA,1701041021
545,mezhdurechenskiy,59.6,65.9333,-3.2,97,100,3.29,RU,1701041021
546,nuku'alofa,-21.1333,-175.2,28.19,83,20,4.63,TO,1701041021
547,port augusta,-32.5,137.7667,24.74,38,92,5.52,AU,1701041021
548,chui,-33.6971,-53.4616,17.4,87,6,4.58,UY,1701041021
549,arba minch,6.0333,37.55,19.72,72,80,1.55,ET,1701041022
550,chonchi,-42.6128,-73.8092,13.4,77,100,0.89,CL,1701041022
551,baruun-urt,46.6806,113.2792,-20.61,89,54,3.33,MN,1701041022
552,boguchany,58.3814,97.4531,-22.82,99,6,0.55,RU,1701041022
553,pavlodar,52.3,76.95,-3.11,80,0,4.0,KZ,1701040998
554,santyoku,37.4406,129.1708,8.94,78,94,3.13,KR,1701041022
555,susuman,62.7833,148.1667,-22.43,99,100,2.31,RU,1701041022
556,labytnangi,66.6572,66.4183,-22.14,99,67,1.37,RU,1701041022
557,watampone,-4.5386,120.3279,26.06,88,98,1.1,ID,1701041023
558,zhangye,38.9342,100.4517,-0.23,46,71,0.89,CN,1701040997
559,santana,-0.0583,-51.1817,31.1,70,20,5.66,BR,1701041023
560,gorontalo,0.5412,123.0595,25.76,86,81,0.97,ID,1701041023
561,claudio,-20.4433,-44.7658,19.35,89,85,5.13,BR,1701041023
562,gizo,-8.103,156.8419,28.54,75,93,1.18,SB,1701041023
563,veinticinco de mayo,-35.4323,-60.1727,24.99,48,0,1.34,AR,1701041024
564,tucuma,-0.1833,-50.05,25.83,87,41,3.66,BR,1701041024
565,broken hill,-31.95,141.4333,24.37,37,18,7.3,AU,1701041025
566,nurota,40.5614,65.6886,16.4,21,100,5.02,UZ,1701041025
567,buala,-8.145,159.5921,26.76,86,100,1.56,SB,1701041025
568,kolpashevo,58.3131,82.9089,-14.38,100,92,1.34,RU,1701041025
569,aritao,16.2979,121.0345,22.3,93,98,1.89,PH,1701041025
570,yemva,62.59,50.8594,-10.7,96,100,2.18,RU,1701041025
571,arno,60.1167,18.6333,-2.34,80,97,3.45,SE,1701041025
572,lorengau,-2.0226,147.2712,29.28,70,91,2.06,PG,1701041026
573,dunkwa,5.9656,-1.78,22.94,99,100,1.71,GH,1701041026
574,conduaga,8.862,117.4893,26.04,82,92,1.22,PH,1701041026
